City_ID,City,Cloudiness,Country,Date,Humidity,Latitude,Longitude,Max Temperature,Wind Speed
0,Puerto Ayora,20,EC,1583959155,70,-0.74,-90.35,86,9.17
1,Avarua,46,CK,1583959030,74,-21.21,-159.78,84.2,9.17
2,Pevek,99,RU,1583959157,87,69.7,170.31,-9.56,6.33
3,Ambanja,100,MG,1583959158,89,-13.68,48.45,78.87,2.93
4,Tocopilla,0,CL,1583959159,39,-22.09,-70.2,72.01,10.94
5,Port Macquarie,90,AU,1583959160,100,-31.43,152.92,61,4.7
6,Lompoc,75,US,1583959161,82,34.64,-120.46,66,6.93
7,Busselton,80,AU,1583959163,90,-33.65,115.33,61,13.22
8,Ardabil,63,IR,1583959165,45,38.25,48.29,38.1,9.24
9,Cape Town,40,ZA,1583959093,68,-33.93,18.42,71.01,9.17
10,Cabra,100,ES,1583959167,68,37.47,-4.44,68,5.14
11,Ushuaia,90,AR,1583959131,81,-54.8,-68.3,48.2,14.99
12,Rikitea,1,PF,1583959169,82,-23.12,-134.97,77.45,15.61
13,Kailua,20,US,1583959170,54,21.4,-157.74,80.6,4.7
14,Cabo San Lucas,75,MX,1583958922,35,22.89,-109.91,91.4,12.75
15,Caranavi,8,BO,1583959172,84,-15.82,-67.55,70.79,1.74
16,Punta Arenas,90,CL,1583959173,93,-53.15,-70.92,53.6,6.93
17,Eureka,90,US,1583959176,87,40.8,-124.16,57,4.7
18,Poum,0,NC,1583959177,81,-20.23,164.02,82.02,13.31
19,Bahawalpur,0,PK,1583959178,94,29.4,71.68,54.39,3.53
20,Jamestown,90,US,1583959180,69,42.1,-79.24,43,6.93
21,Hilo,20,US,1583958995,57,19.73,-155.09,80.6,5.82
22,Cherskiy,100,RU,1583959182,96,68.75,161.3,-11.07,6.35
23,Bluff,95,NZ,1583959185,84,-46.6,168.33,51.01,4
24,Klaksvík,100,FO,1583959186,71,62.23,-6.59,32,9.69
25,Buraidah,67,SA,1583959187,28,26.33,43.98,69.8,5.82
26,Taltal,0,CL,1583959188,72,-25.4,-70.48,67.23,5.88
27,Nakamura,0,JP,1583959189,77,32.98,132.93,36.5,4.07
28,Antofagasta,95,CL,1583959190,56,-23.65,-70.4,73.4,12.75
29,Ustynivka,90,UA,1583959191,66,47.96,32.54,50,13.42
30,Taoudenni,68,ML,1583959192,11,22.68,-3.98,72.18,12.64
31,Tiksi,0,RU,1583959193,79,71.69,128.87,-22.04,11.95
32,The Pas,75,CA,1583959195,68,53.83,-101.25,30.2,8.05
33,Albany,75,US,1583958902,36,42.6,-73.97,48,4.7
34,Galesong,20,ID,1583959197,94,-5.32,119.37,77,3.36
35,Alexandria,40,EG,1583959024,72,31.22,29.96,60.8,12.75
36,Lagoa,100,PT,1583959199,73,39.05,-27.98,57.38,13.27
37,Bandarbeyla,77,SO,1583959152,70,9.49,50.81,78.6,18.95
38,Airai,41,TL,1583959191,90,-8.93,125.41,67.06,2.59
39,Hobart,29,AU,1583958998,76,-42.88,147.33,55.4,9.17
40,Mataura,44,NZ,1583959190,84,-46.19,168.86,51.01,4
41,Carnarvon,0,AU,1583959187,100,-24.87,113.63,71.6,3.36
42,Tonekābon,40,IR,1583959207,93,36.82,50.87,48.2,2.24
43,San Felipe,7,VE,1583959208,64,10.34,-68.74,80.53,9.17
44,Esperance,43,AU,1583959209,82,-33.87,121.9,60.8,8.05
45,Qaanaaq,0,GL,1583959210,50,77.48,-69.36,-23.19,6.15
46,Upernavik,74,GL,1583959211,93,72.79,-56.15,-22.09,6.08
47,Mohpa,75,IN,1583959212,57,21.32,78.82,77,3.36
48,Kumëny,100,RU,1583959215,91,58.11,49.92,33.37,12.71
49,Zyryanka,100,RU,1583959217,96,65.75,150.85,-21.39,13.62
50,Meulaboh,89,ID,1583959215,79,4.14,96.13,81.75,5.79
51,Cidreira,0,BR,1583959219,84,-30.18,-50.21,75.76,15.88
52,Lodja,89,CD,1583959220,91,-3.48,23.43,70.21,1.88
53,Karratha,100,AU,1583959221,59,-20.74,116.85,86.79,17.94
54,Rovaniemi,90,FI,1583959097,98,66.5,25.72,32,6.93
55,Ortaköy,100,TR,1583959223,60,38.74,34.04,42.8,1.12
56,George Town,40,MY,1583959225,94,5.41,100.34,82.4,3.36
57,Faya,68,SA,1583959226,82,18.39,42.45,62.6,5.19
58,Fatwa,40,IN,1583959227,100,25.52,85.32,66.2,5.55
59,Bathsheba,20,BB,1583959228,61,13.22,-59.52,82.4,16.11
60,Severo-Kuril'sk,98,RU,1583959229,88,50.68,156.12,25.38,35.21
61,Saint Paul Harbor,1,US,1583959230,39,57.79,-152.41,28.4,5.82
62,East London,96,ZA,1583959220,81,-33.02,27.91,72.81,15.99
63,Kangaatsiaq,100,GL,1583959233,84,68.31,-53.46,9.7,12.06
64,Dauphin,1,CA,1583959235,64,51.15,-100.05,39.2,18.34
65,Marzuq,2,YE,1583959237,57,14.4,46.47,59.29,0.65
66,Tegul'det,100,RU,1583959238,92,57.31,88.17,22.3,15.39
67,New Norfolk,53,AU,1583959239,76,-42.78,147.06,55.4,9.17
68,Adeje,99,ES,1583959240,20,28.12,-16.73,71.01,12.95
69,Hermanus,99,ZA,1583959241,80,-34.42,19.23,70,11.01
70,Araouane,100,ML,1583959242,7,18.9,-3.53,76.48,8.75
71,Kapaa,1,US,1583959245,69,22.08,-159.32,75.99,4.7
72,Itarema,100,BR,1583959224,85,-2.92,-39.92,77.99,3.91
73,Hailey,20,US,1583959180,83,43.52,-114.32,46.4,11.41
74,Ancud,75,CL,1583959248,63,-41.87,-73.82,64.4,11.41
75,Takaka,99,NZ,1583959249,83,-40.85,172.8,55.58,2.19
76,Ostfildern,14,DE,1583959250,76,48.73,9.25,59,9.17
77,Hithadhoo,100,MV,1583959251,73,-0.6,73.08,83.37,10.09
78,Batagay-Alyta,0,RU,1583959252,57,67.8,130.41,-26,4.09
79,Mapiripán,100,CO,1583959254,43,2.89,-72.13,92.66,0.98
80,Cabedelo,40,BR,1583959255,74,-6.98,-34.83,84.2,9.17
81,Sur,0,OM,1583959251,28,22.57,59.53,62.98,2.08
82,Butaritari,100,KI,1583959257,78,3.07,172.79,82.58,16.62
83,Sumenep,0,ID,1583959258,83,-7.02,113.87,79.16,3.76
84,Baltasi,98,RU,1583959259,78,56.35,50.21,36.79,15.52
85,Birobidzhan,100,RU,1583959260,92,48.8,132.95,12.94,1.61
86,Polunochnoye,100,RU,1583959261,98,60.87,60.42,30.74,5.21
87,General Roca,43,AR,1583959262,23,-39.03,-67.58,86,5.82
88,Doka,13,SD,1583959264,20,13.52,35.77,80.26,5.84
89,Mandera,38,KE,1583959265,28,3.94,41.87,88.57,11.3
90,Japura,17,ID,1583959266,98,-0.32,102.35,74.34,0.67
91,Songea,100,TZ,1583959267,96,-10.68,35.65,67.66,2.93
92,Mendi,100,PG,1583959268,97,-6.18,143.65,54.99,3.65
93,Kongolo,91,CD,1583959269,97,-5.38,27,70.45,2.28
94,Sartell,75,US,1583959270,93,45.62,-94.21,37.99,16.11
95,Ribeira Grande,75,PT,1583959225,76,38.52,-28.7,57.2,13.87
96,Vanderhoof,0,CA,1583959272,46,54.02,-124.02,37.06,11.77
97,Puerto Madryn,0,AR,1583959196,15,-42.77,-65.04,84.11,19.24
98,Mar del Plata,90,AR,1583959275,78,-38,-57.56,71.6,10.29
99,Raudeberg,40,NO,1583959276,80,61.99,5.14,39.2,24.16
100,Porto-Novo,20,BJ,1583959277,84,6.5,2.6,86,14.99
101,St. George's,20,GD,1583959278,65,12.06,-61.75,82.4,17.22
102,Yellowknife,20,CA,1583959122,54,62.46,-114.35,3.2,12.75
103,Chokurdakh,0,RU,1583959280,93,70.63,147.92,-29.65,4.59
104,Tilichiki,100,RU,1583959281,93,60.47,166.1,27.72,35.81
105,Talnakh,90,RU,1583959250,85,69.49,88.4,14,35.79
106,Half Moon Bay,20,US,1583959284,67,37.46,-122.43,73.99,8.05
107,Abu Samrah,29,SY,1583959285,54,35.3,37.18,59.47,5.23
108,Sioux Lookout,90,CA,1583959286,44,50.1,-91.92,37.4,10.29
109,Fortuna,90,US,1583959218,100,40.6,-124.16,66.99,3.36
110,Ugoofaaru,44,MV,1583959288,66,5.67,73,83.17,7.94
111,Havelock,1,US,1583959290,56,34.88,-76.9,75.99,16.11
112,Luganville,40,VU,1583959291,94,-15.53,167.17,78.8,3.36
113,Christchurch,57,NZ,1583959293,76,-43.53,172.63,57,2.24
114,Shingū,0,JP,1583959294,70,33.73,135.98,45.81,8.68
115,Norman Wells,90,CA,1583959035,69,65.28,-126.83,-9.4,17.22
116,Atuona,15,PF,1583959198,77,-9.8,-139.03,82.18,11.12
117,Atbasar,100,KZ,1583959297,96,51.8,68.33,30.99,7.23
118,Panguna,94,PG,1583959298,94,-6.32,155.48,71.2,3.87
119,Dunedin,0,NZ,1583959300,68,-45.87,170.5,55,5.01
120,Vaini,75,TO,1583959199,94,-21.2,-175.2,78.8,3.36
121,Dikson,69,RU,1583959187,93,73.51,80.55,-16.08,23.29
122,Cascais,100,PT,1583959096,72,38.7,-9.42,70,11.41
123,Flinders,75,AU,1583959288,93,-34.58,150.86,63,4.7
124,Tuktoyaktuk,75,CA,1583959214,68,69.45,-133.04,-20.2,12.75
125,Vostok,81,RU,1583959269,96,46.49,135.88,7.63,6.91
126,Bath,100,GB,1583959309,76,51.38,-2.36,52,18.34
127,Robertsport,100,LR,1583959211,80,6.75,-11.37,82.8,9.6
128,Sistranda,75,NO,1583959311,69,63.73,8.83,39.99,13.87
129,Iqaluit,20,CA,1583959313,69,63.75,-68.51,-9,11.41
130,Bonthe,100,SL,1583959315,85,7.53,-12.51,80.65,9.08
131,Castro,0,BR,1583959126,63,-24.79,-50.01,72.82,2.82
132,Faanui,87,PF,1583959317,73,-16.48,-151.75,82.72,10.22
133,Ligayan,54,PH,1583959318,72,4.65,119.47,82.53,6.49
134,Port Alfred,100,ZA,1583959207,93,-33.59,26.89,66.99,1.99
135,Bella Union,50,UY,1583959320,21,-30.28,-57.6,99.21,6.78
136,Dingle,68,PH,1583959263,88,11,122.67,71.82,10.96
137,Along,100,IN,1583959322,91,28.17,94.77,54.59,5.28
138,Bilma,0,NE,1583959324,14,18.69,12.92,62.49,14.23
139,Muromtsevo,100,RU,1583959325,98,56.37,75.24,33.37,7.94
140,Kahului,20,US,1583959288,57,20.89,-156.47,78.8,8.05
141,Dhanwār,82,IN,1583959327,54,24.42,85.98,71.04,4.18
142,Betong,3,TH,1583959329,98,5.77,101.07,68.02,2.86
143,Bonavista,98,CA,1583959299,84,48.65,-53.11,35.01,14
144,Mount Isa,0,AU,1583959044,65,-20.73,139.5,77,5.82
145,Shache,100,CN,1583959332,32,38.42,77.24,42.58,2.15
146,Chui,100,UY,1583959334,76,-33.7,-53.46,74.73,11.54
147,Praia,0,CV,1583959219,39,14.92,-23.51,78.8,17.22
148,Uthal,0,PK,1583959336,10,25.81,66.62,64.29,8.52
149,Mahébourg,75,MU,1583959337,94,-20.41,57.7,80.6,11.52
150,Bredasdorp,100,ZA,1583959280,60,-34.53,20.04,70,13.87
151,Voh,0,NC,1583959339,78,-20.97,164.7,80.37,3.67
152,Bethel,1,US,1583959341,26,41.37,-73.41,55.99,9.17
153,Leh,100,IN,1583959342,44,34.17,77.58,15.71,4.94
154,Khatanga,100,RU,1583959344,93,71.97,102.5,14.2,14.99
155,Laas,0,IT,1583959345,86,46.62,10.7,48.2,3.36
156,Basco,86,PH,1583959347,82,20.45,121.97,74.64,22.93
157,Qom,99,IR,1583959348,31,34.64,50.88,55.15,1.99
158,Progress,90,US,1583959349,43,40.29,-76.83,53.01,1.45
159,Khovd,0,MN,1583959350,56,48.01,91.64,4.89,6.08
160,Gardner,1,US,1583959351,27,42.58,-72,55,3.36
161,Buluang,81,PH,1583959352,92,13.31,123.34,71.89,7.07
162,Champerico,40,GT,1583959354,47,14.3,-91.92,95,11.41
163,Luan,24,CH,1583959355,81,46.36,6.98,51.01,4.7
164,Paulista,40,BR,1583959356,70,-7.94,-34.87,86,9.17
165,Chaykovskiy,96,RU,1583959357,65,56.77,54.11,39,3
166,Geraldton,40,AU,1583959358,83,-28.77,114.6,71.6,10.29
167,Abhā,99,SA,1583959359,82,18.22,42.51,62.6,3.36
168,Matara,19,LK,1583959246,86,5.95,80.54,72.01,5.57
169,Grand-Lahou,86,CI,1583959362,82,5.14,-5.02,83.57,12.82
170,Dalnerechensk,81,RU,1583959364,89,45.93,133.72,15.01,11.56
171,Ayan,0,RU,1583959365,74,56.45,138.17,1.56,11.41
172,Kavieng,86,PG,1583959366,73,-2.57,150.8,84.06,11.74
173,Krasne,0,UA,1583959091,70,49.91,24.61,46.4,8.95
174,Port Shepstone,94,ZA,1583959369,91,-30.74,30.45,65.84,7.83
175,Cayenne,75,GF,1583959250,58,4.93,-52.33,84.2,11.41
176,Narsaq,20,GL,1583959371,58,60.92,-46.05,26.6,5.82
177,Mago,0,RU,1583959372,99,53.25,140.18,-5.94,3.06
178,Srednekolymsk,86,RU,1583959374,97,67.45,153.68,-23.46,7.7
179,Plettenberg Bay,58,ZA,1583959257,83,-34.05,23.37,67.8,11.65
180,Barrow,1,US,1583959182,91,71.29,-156.79,-38.2,9.17
181,Adrar,0,MR,1583959377,7,20.5,-10.07,72.41,7.34
182,Lorengau,84,PG,1583959379,71,-2.02,147.27,83.88,11.1
183,Puerto Escondido,20,MX,1583959380,79,15.85,-97.07,86,6.93
184,Ponta do Sol,20,PT,1583959381,72,32.67,-17.1,62.6,23.04
185,Aras,100,ES,1583959382,67,42.56,-2.36,57.2,1.12
186,Mafinga,100,TZ,1583959383,97,-7.25,35.07,67.86,4.56
187,Oistins,20,BB,1583959385,61,13.07,-59.53,82.4,16.11
188,Lebu,100,CL,1583959386,48,-37.62,-73.65,70.92,6.53
189,Thompson,90,CA,1583959186,49,55.74,-97.86,24.8,6.93
190,Glarus,75,CH,1583959388,87,47.04,9.07,54,1.12
191,Yar-Sale,37,RU,1583959389,76,66.83,70.83,4.26,7
192,Husavik,90,IS,1583959390,100,66.04,-17.34,28.4,44.96
193,Arraial do Cabo,0,BR,1583959212,65,-22.97,-42.03,80.6,11.41
194,Khandyga,99,RU,1583959392,98,62.67,135.6,-0.35,4.25
195,Bengkulu,93,ID,1583959395,94,-3.8,102.27,74.95,4.68
196,Saskylakh,100,RU,1583959396,89,71.92,114.08,-3.57,20.71
197,Manacapuru,40,BR,1583959397,52,-3.3,-60.62,91.4,5.82
198,Nanortalik,16,GL,1583959398,74,60.14,-45.24,28.22,4.27
199,Takoradze,16,GH,1583959399,85,4.88,-1.76,80.35,5.03
200,Tuatapere,3,NZ,1583959262,84,-46.13,167.68,51.01,5.01
201,Saint George,43,US,1583959401,51,37.1,-113.58,63,4.7
202,Helong,84,CN,1583959402,80,42.54,129,19.45,8.3
203,Canutama,76,BR,1583959404,58,-6.53,-64.38,89.6,2.64
204,Øksfjord,75,NO,1583959405,79,70.24,22.35,28.4,5.82
205,Deputatsky,0,RU,1583959406,86,69.3,139.9,-28.34,1.21
206,Marawi,2,PH,1583959407,85,8,124.29,73,7
207,Tautira,75,PF,1583959408,66,-17.73,-149.15,87.8,17.22
208,Sungai Penuh,43,ID,1583959409,98,-2.08,101.38,62.89,2.77
209,Andros Town,75,BS,1583959410,61,24.7,-77.77,77,12.75
210,Kruisfontein,100,ZA,1583959208,82,-34,24.73,67.35,17.78
211,Qaqortoq,20,GL,1583959414,58,60.72,-46.03,26.6,5.82
212,Sakakah,75,SA,1583959415,15,29.97,40.21,78.8,4.7
213,Nova Londrina,8,BR,1583959416,76,-22.77,-52.98,80.67,5.66
214,Tiarei,75,PF,1583959417,66,-17.53,-149.33,87.8,17.22
215,Puerto Madero,20,MX,1583959313,49,14.72,-92.42,93.2,11.41
216,Ahipara,0,NZ,1583959419,100,-35.17,173.17,66,8.72
217,Hong Kong,40,HK,1583959420,82,22.29,114.16,70,18.34
218,Saint-Louis,0,SN,1583959423,9,16.33,-15,88.54,11.79
219,Nuevo Progreso,45,MX,1583959239,65,23.17,-97.95,86,8.99
220,Brae,100,GB,1583959425,62,60.4,-1.35,41,33.33
221,Inhambane,0,MZ,1583959426,76,-23.86,35.38,78.1,8.84
222,Souillac,75,MU,1583959427,94,-20.52,57.52,80.6,11.52
223,Proletarskiy,75,RU,1583959428,70,50.79,35.77,46.4,13.42
224,Kokoda,100,PG,1583959429,94,-8.88,147.74,62.55,2.33
225,Aripuanã,6,BR,1583959430,92,-9.17,-60.63,82.74,1.07
226,Payo,98,ID,1583959432,97,-3.75,103.64,69.62,1.97
227,Kamenka,100,RU,1583959433,93,51.32,42.77,48.99,5.01
228,Cockburn Town,40,TC,1583959300,69,21.46,-71.14,77,9.17
229,Nuuk,75,GL,1583959435,79,64.18,-51.72,21.2,14.99
230,Wau,87,SS,1583959437,37,7.7,28,84.02,3.67
231,Baykit,100,RU,1583959219,95,61.67,96.37,18.73,7.76
232,Paidha,100,UG,1583959439,82,2.42,30.99,68.76,5.41
233,Lakes Entrance,0,AU,1583959441,89,-37.88,147.98,57,6.71
234,Kryve Ozero,67,UA,1583959442,75,47.95,30.35,47.7,11.72
235,Martapura,100,ID,1583959443,96,-3.42,114.85,75.45,2.51
236,Hasaki,20,JP,1583959444,48,35.73,140.83,44.6,8.05
237,Takhtamygda,100,RU,1583959445,91,54.1,123.57,-4.52,13.91
238,Huarmey,24,PE,1583959446,46,-10.07,-78.15,82.22,10.45
239,Clyde River,75,CA,1583959447,75,70.47,-68.59,-18.4,6.93
240,Constitución,100,CL,1583959237,61,-35.33,-72.42,66.94,10.67
241,Kungurtug,0,RU,1583959449,86,50.6,97.52,-9.06,3.29
242,Havre-St-Pierre,75,CA,1583959266,73,50.23,-63.6,19.4,13.87
243,Paamiut,58,GL,1583959452,87,61.99,-49.67,18.88,4.9
244,Tagusao,9,PH,1583959453,90,9.19,117.81,74.66,4.7
245,Katsuura,20,JP,1583959454,49,35.13,140.3,48.2,21.92
246,Oreoí,19,GR,1583959455,87,38.95,23.1,53.01,4.7
247,Murindó,25,CO,1583959456,84,6.98,-76.75,77.4,4.43
248,Pozo Colorado,0,PY,1583959457,16,-23.49,-58.8,101.17,7.31
249,Batemans Bay,0,AU,1583959459,94,-35.72,150.18,57,4
250,Kununurra,0,AU,1583959461,94,-15.77,128.73,73.4,0.94
251,Nome,90,US,1583959462,84,64.5,-165.41,6.8,5.82
252,Sitka,90,US,1583959463,73,57.05,-135.33,33.8,12.75
253,Toma,100,BF,1583959464,4,12.77,-2.88,87.93,10.16
254,Grand Gaube,75,MU,1583959273,94,-20.01,57.66,80.6,12.15
255,São Miguel do Araguaia,100,BR,1583959466,94,-13.28,-50.16,77.61,2.64
256,Hambantota,13,LK,1583959467,79,6.12,81.12,77.72,9.8
257,Hamilton,90,US,1583959468,66,39.18,-84.53,55,6.89
258,Nushki,0,PK,1583959451,37,29.55,66.02,45.37,10.76
259,Port Lincoln,100,AU,1583959470,38,-34.73,135.87,78.42,14.56
260,Kiryat Gat,40,IL,1583959472,77,31.61,34.76,75,2.24
261,Pontian Kecil,20,MY,1583959473,94,1.48,103.39,80.6,3.36
262,Carroll,90,US,1583959474,53,39.55,-77.02,54,3.36
263,Jalu,41,LY,1583959475,56,29.03,21.55,59.65,18.7
264,Isangel,20,VU,1583959313,88,-19.55,169.27,78.8,10.09
265,Maniitsoq,32,GL,1583959477,75,65.42,-52.9,16.38,12.17
266,Raglan,3,NZ,1583959478,69,-37.8,174.88,64.99,5.01
267,Port Augusta,40,AU,1583959479,34,-32.5,137.77,78.8,4.7
268,Osijek,70,HR,1583959344,76,45.55,18.69,55.99,6.93
269,Benguela,97,AO,1583959277,79,-12.58,13.41,80.19,3.89
270,Kumul,100,CN,1583959483,40,42.8,93.45,29.16,20.78
271,Iquique,0,CL,1583959485,54,-20.22,-70.14,78.8,17.22
272,Villahermosa,40,MX,1583959486,51,17.98,-92.92,86,6.67
273,Nikolskoye,75,RU,1583959192,80,59.7,30.79,41,8.95
274,Kassala,0,SD,1583959488,46,15.45,36.4,78.12,7.02
275,Vardø,75,NO,1583959204,74,70.37,31.11,30.2,25.28
276,Wasco,90,US,1583959491,67,35.59,-119.34,66,3.36
277,Opuwo,43,NA,1583959492,40,-18.06,13.84,71.44,5.55
278,Bambanglipuro,100,ID,1583959493,89,-7.95,110.28,74.75,2.86
279,Santiago,75,CL,1583959401,19,-33.46,-70.65,91.4,5.82
280,Shadrinsk,100,RU,1583959496,99,56.09,63.63,37.24,12.82
281,Preslav,100,BG,1583959439,73,43.17,26.82,47.88,4.09
282,Kieta,100,PG,1583959241,82,-6.22,155.63,82.24,17.63
283,Beringovskiy,62,RU,1583959499,91,63.05,179.32,3.7,10.87
284,Berlevåg,40,NO,1583959503,79,70.86,29.09,24.8,24.16
285,Kankan,100,GN,1583959505,13,10.39,-9.31,84.65,3.09
286,Vestmanna,100,FO,1583959507,76,62.16,-7.17,32,5.23
287,Nishihara,20,JP,1583959508,67,26.18,127.76,59,4.7
288,Lata,100,PT,1583959509,87,40.16,-8.33,57.99,6.93
289,Shorewood,90,US,1583959511,81,41.52,-88.2,44.6,4.7
290,Teófilo Otoni,15,BR,1583959382,95,-17.86,-41.51,71.19,4.18
291,Algiers,7,DZ,1583959291,51,36.75,3.04,59,2.24
292,Biltine,45,TD,1583959514,9,14.53,20.92,75.07,8.39
293,Codrington,63,AU,1583959515,53,-38.27,141.97,68.81,17
294,Kamaishi,0,JP,1583959516,62,39.27,141.88,34.86,3.22
295,Ouallam,100,NE,1583959517,6,14.32,2.09,84.76,5.53
296,Naze,75,JP,1583959518,59,28.37,129.48,60.8,8.05
297,Arrondissement de Bressuire,100,FR,1583959519,94,46.92,-0.5,54,15.32
298,Neuquén,14,AR,1583959521,23,-38.95,-68.06,86,5.82
299,Hay River,75,CA,1583959522,71,60.82,-115.8,8.6,12.75
300,Kolyshley,100,RU,1583959523,89,52.7,44.54,43,17.05
301,Eyl,86,SO,1583959524,79,7.98,49.82,78.35,22.91
302,Richards Bay,34,ZA,1583959492,75,-28.78,32.04,78.17,23.58
303,Aklavik,20,CA,1583959326,62,68.22,-135.01,-13,2.24
304,Krasnosel'kup,72,RU,1583959458,85,65.7,82.47,18.64,18.86
305,Saint-Augustin,100,CA,1583959528,90,51.23,-58.65,16.83,17.54
306,Los Llanos de Aridane,40,ES,1583959529,82,28.66,-17.92,69.01,10.29
307,Bonfim,73,BR,1583959531,29,3.08,-59.95,98.42,10.67
308,Florø,40,NO,1583959533,80,61.6,5.03,39.2,24.16
309,Port Keats,10,AU,1583959534,80,-14.25,129.55,80.58,5.03
310,Verkhnedneprovskiy,96,RU,1583959535,82,54.98,33.35,40.93,12.19
311,Port Elizabeth,75,ZA,1583959536,88,-33.92,25.57,68,19.46
312,Dali,15,CN,1583959537,70,25.7,100.18,41.97,3.27
313,Juneau,90,US,1583959538,80,58.3,-134.42,30.2,8.05
314,Rurrenabaque,20,BO,1583959540,59,-14.44,-67.53,95,4.14
315,Duque de Caxias,20,BR,1583959541,61,-22.79,-43.31,84.2,16.11
316,Porto União,0,BR,1583959542,39,-26.24,-51.08,74.66,2.62
317,Margate,40,GB,1583959543,87,51.38,1.39,53.01,23.04
318,Vanimo,100,PG,1583959544,76,-2.67,141.3,82.06,10.38
319,Westport,1,US,1583959505,39,41.14,-73.36,57,9.17
320,Saint-Philippe,93,RE,1583959546,94,-21.36,55.77,80.6,16.11
321,Barañáin,70,ES,1583959547,71,42.81,-1.68,57.2,4.7
322,Auki,100,SB,1583959549,73,-8.77,160.7,83.07,2.06
323,Mossamedes,69,AO,1583959550,84,-15.2,12.15,75.58,7.25
324,Olafsvik,100,IS,1583959551,78,64.89,-23.71,29.75,39.77
325,Magadan,100,RU,1583959552,91,59.57,150.8,10.33,17.96
326,Thinadhoo,100,MV,1583959553,69,0.53,72.93,83.28,10.18
327,La Sarre,100,CA,1583959538,84,48.8,-79.2,25.41,4.63
328,Kavaratti,0,IN,1583959555,68,10.57,72.64,81.54,2.37
329,Tazovsky,100,RU,1583959556,91,67.47,78.7,4.82,16.55
330,Pisco,0,PE,1583959557,30,-13.7,-76.22,77,16.11
331,Kevsala,22,RU,1583959559,78,45.8,42.69,51.6,8.88
332,Rawson,0,AR,1583959560,56,-43.3,-65.1,70.47,0.27
333,Northam,40,GB,1583959561,76,51.03,-4.22,53.6,17.22
334,Kalmunai,38,LK,1583959562,65,7.42,81.82,81.36,6.53
335,Sibolga,97,ID,1583959563,98,1.74,98.78,73.08,2.28
336,Tasiilaq,20,GL,1583959565,61,65.61,-37.64,12.2,9.35
337,Labuhan,56,ID,1583959566,93,-6.88,112.21,74.71,2.04
338,Arman',100,RU,1583959504,88,59.7,150.17,10.54,19.57
339,Sémbé,65,CG,1583959571,92,1.65,14.58,72.63,4
340,Bambous Virieux,75,MU,1583959572,94,-20.34,57.76,80.6,16.53
341,Necochea,100,AR,1583959573,91,-38.55,-58.74,66.25,12.62
342,Chumikan,0,RU,1583959574,90,54.72,135.31,-0.94,4.63
343,Kisangani,48,CD,1583959575,92,0.52,25.2,72.72,1.21
344,Cururupu,100,BR,1583959576,95,-1.83,-44.87,77.52,2.55
345,Jati,0,PK,1583959577,17,24.35,68.27,61.32,10.63
346,Torbay,90,CA,1583959579,93,47.67,-52.73,37.99,20.8
347,Kitui,86,KE,1583959580,82,-1.37,38.01,70.88,3.24
348,Fairbanks,1,US,1583959581,75,64.84,-147.72,-2.99,3.06
349,Porbandar,0,IN,1583959582,61,21.64,69.61,72.39,17.6
350,Jiangyou,44,CN,1583959583,90,31.77,104.72,38.71,2.64
351,Province of Mantua,0,IT,1583959584,81,45.17,10.78,55.99,4.7
352,Saint Anthony,90,US,1583959470,74,45.02,-93.22,44.6,9.17
353,Rio Grande,20,BR,1583959587,69,-32.03,-52.1,82.4,13.87
354,Sepuka,100,TZ,1583959589,94,-4.75,34.53,66,2.62
355,Newcastle,75,AU,1583959590,93,-32.93,151.78,63,1.12
356,Peterhead,58,GB,1583959591,69,57.51,-1.8,39.2,9.17
357,Salé,0,MA,1583959592,87,34.04,-6.82,61,6.93
358,Grindavik,75,IS,1583959593,86,63.84,-22.43,32,28.86
359,Provideniya,90,RU,1583959594,92,64.38,-173.3,12.2,13.42
360,Tommot,100,RU,1583959596,96,58.96,126.29,-17.79,7.45
361,Price,90,US,1583959597,61,39.6,-110.81,48.2,8.05
362,Frankfort,100,ZA,1583959599,80,-27.27,28.48,61.3,9.93
363,Andenes,75,NO,1583959488,86,69.31,16.12,30.2,17.22
364,Pochutla,40,MX,1583959601,52,15.74,-96.47,90,13.87
365,Demba,100,CD,1583959602,98,-5.51,22.27,70.32,4.65
366,Lagunas,93,PE,1583959603,50,-5.23,-75.68,91.31,3.76
367,Prieska,100,ZA,1583959604,42,-29.66,22.75,76.1,4.54
368,Piaçabuçu,0,BR,1583959605,74,-10.41,-36.43,81.77,10.11
369,Mount Gambier,49,AU,1583959607,67,-37.83,140.77,62.6,6.93
370,Comodoro Rivadavia,20,AR,1583959609,24,-45.87,-67.5,82.4,17.22
371,Gachsaran,0,IR,1583959610,54,30.36,50.8,53.6,1.41
372,Celestún,0,MX,1583959611,79,20.87,-90.4,74.71,15.28
373,Champotón,40,MX,1583959613,69,19.35,-90.72,80.6,18.34
374,Nhulunbuy,100,AU,1583959614,94,-12.23,136.77,80.6,5.82
375,Wuhu,92,CN,1583959615,75,31.34,118.38,44.6,2.24
376,Broome,90,US,1583959616,44,42.25,-75.83,44.01,4.7
377,Coyhaique,40,CL,1583959618,42,-45.58,-72.07,64.4,9.17
378,Vila Franca do Campo,75,PT,1583959620,87,37.72,-25.43,59,9.17
379,Turukhansk,100,RU,1583959621,94,65.82,87.98,26.71,16.15
380,Villazón,18,BO,1583959622,35,-22.09,-65.59,65.75,16.58
381,Raton,1,US,1583959623,22,36.9,-104.44,69.8,17.22
382,Kudymkar,100,RU,1583959624,90,59.02,54.66,32.83,10.83
383,Svobodnyy,100,RU,1583959627,96,51.4,128.13,11.7,6.58
384,Pontianak,70,ID,1583959628,99,-0.03,109.33,73.85,1.45
385,Tymovskoye,100,RU,1583959629,82,50.85,142.66,9,12.17
386,Chapais,1,CA,1583959630,51,49.78,-74.85,12.2,11.41
387,Tomatlán,99,MX,1583959631,34,19.93,-105.25,92.97,8.75
388,Dandong,63,CN,1583959590,66,40.13,124.39,33.1,10.63
389,Puro,42,PH,1583959633,80,12.48,123.38,77.58,12.39
390,Bauchi,0,NG,1583959634,8,10.5,10,81.64,6.53
391,Masuguru,100,TZ,1583959636,97,-11.37,38.42,74.1,2.46
392,Hermosillo,76,MX,1583959637,38,29.07,-110.97,86,8.99
393,Penzance,90,GB,1583959389,93,50.12,-5.54,51.01,25.28
394,Yārāda,0,IN,1583959640,81,17.65,83.27,79.92,11.63
395,Bowling Green,90,US,1583959641,76,36.99,-86.44,57.2,6.93
396,Athens,0,GR,1583959413,87,37.98,23.72,55,3.36
397,Porto de Moz,87,BR,1583959643,72,-1.75,-52.24,83.95,2.39
398,Chak One Hundred Twenty Nine Left,0,PK,1583959644,97,30.43,73.05,52.84,6.22
399,Den Helder,75,NL,1583959646,93,52.96,4.76,54,23.04
400,Diffa,86,NE,1583959647,13,13.32,12.61,79.93,18.39
401,Brigantine,75,US,1583959648,40,39.41,-74.36,55.99,11.41
402,Hofn,100,IS,1583959650,75,64.25,-15.21,37.42,44.49
403,Zlobin,0,HR,1583959651,76,45.29,14.65,50,2.04
404,Lüderitz,12,NA,1583959652,88,-26.65,15.16,64.4,10.29
405,The Valley,20,AI,1583959653,65,18.22,-63.06,82,13.87
406,Hualmay,24,PE,1583959655,53,-11.1,-77.61,78.94,9.13
407,Port Hedland,100,AU,1583959656,83,-20.32,118.57,82.4,5.82
408,Portland,75,US,1583958948,46,45.52,-122.68,55.99,10.29
409,Kumluca,100,TR,1583959658,34,36.37,30.29,54.07,5.39
410,Kudahuvadhoo,94,MV,1583959659,70,2.67,72.89,83.17,9.22
411,Arrondissement de Limoux,66,FR,1583959660,87,42.92,2.17,59,8.05
412,Usinsk,100,RU,1583959661,97,65.99,57.53,26.91,11.25
413,Qinzhou,100,CN,1583959662,94,21.95,108.62,71.47,12.91
414,Gurupá,49,BR,1583959663,74,-1.41,-51.64,83.8,2.77
415,Leningradskiy,26,RU,1583959665,81,69.38,178.42,-14.91,9.8
416,Berezovyy,31,RU,1583959666,87,51.67,135.7,3.56,2.01
417,Panitian,9,PH,1583959667,90,9.1,118.09,74.66,4.7
418,San Quintín,100,MX,1583959668,78,30.48,-115.95,67.32,7.61
419,Plainview,1,US,1583959596,24,40.78,-73.47,57.99,5.82
420,Neyshabur,0,IR,1583959671,36,36.21,58.8,42.93,8.19
421,Manjeshwar,20,IN,1583959672,69,12.72,74.89,80.6,3.36
422,Piotrków Trybunalski,20,PL,1583959674,80,51.41,19.7,43,3.36
423,El Fuerte,97,MX,1583959675,22,26.42,-108.62,92.55,8.46
424,Huai Yot,33,TH,1583959676,97,7.79,99.63,74.93,4.14
425,Elko,1,US,1583959645,35,41,-115.5,59,9.17
426,Zhigalovo,100,RU,1583959678,97,54.81,105.16,6.78,4.65
427,Geelong,43,AU,1583959679,72,-38.15,144.36,68,9.17
428,Hastings,93,GB,1583959680,100,50.86,0.57,52,33.33
429,Botngård,75,NO,1583959681,69,63.77,9.81,42.01,13.87
430,Pacific Grove,20,US,1583959644,46,36.62,-121.92,72,8.34
431,Umm Kaddadah,68,SD,1583959684,14,13.6,26.69,85.69,8.5
432,Havøysund,75,NO,1583959685,79,71,24.66,26.6,9.17
433,Nelson Bay,75,AU,1583959686,93,-32.72,152.15,66.99,1.12
434,Agua Dulce,40,MX,1583959687,65,18.13,-94.13,80.6,17.22
435,Caronport,40,CA,1583959689,42,50.45,-105.82,46.4,20.8
436,Mel'nikovo,100,RU,1583959690,83,56.56,84.08,25,13.04
437,Yengema,100,SL,1583959691,72,8.72,-11.17,78.01,2.39
438,Rochegda,100,RU,1583959692,99,62.8,43.25,33.82,5.44
439,Kyzyl-Suu,100,KG,1583959694,59,42.34,78,28.06,6.13
440,Carbonia,0,IT,1583959695,93,39.17,8.52,55.99,6.93
441,Poltavka,100,RU,1583959697,95,54.37,71.76,33.57,11.23
442,Maykor,100,RU,1583959698,89,59.01,55.88,32.41,10.94
443,Port Moresby,40,PG,1583959699,83,-9.44,147.18,78.8,11.41
444,Nara,0,JP,1583959523,52,34.69,135.8,44.6,13.87
445,Devgarh,0,IN,1583959701,30,25.53,73.9,59.18,10.85
446,Verāval,0,IN,1583959702,65,20.9,70.37,62.46,6.73
447,Apt,0,FR,1583959704,76,43.88,5.4,60.8,4.7
448,Makakilo City,90,US,1583959705,73,21.35,-158.09,80.6,6.06
449,Angoram,95,PG,1583959706,99,-4.06,144.07,73.27,5.26
450,Bulawayo,86,ZW,1583959707,66,-20.15,28.58,67.06,6.6
451,Kenai,1,US,1583959709,71,60.55,-151.26,16,5.82
452,Campbell River,20,CA,1583959710,45,50.02,-125.24,48.2,12.75
453,Sola,16,VU,1583959711,67,-13.88,167.55,86.09,5.44
454,Luanda,40,AO,1583959458,78,-8.84,13.23,82.4,3.36
455,Nānākuli,90,US,1583959715,73,21.39,-158.15,80.6,6.06
456,Casma,75,CL,1583959716,44,-41.01,-73.12,75.2,4.7
457,Mbour,0,SN,1583959717,28,14.42,-16.96,84.2,10.29
458,Marystown,100,CA,1583959718,95,47.17,-55.15,33.93,11.01
459,Lagos,20,NG,1583959506,83,6.58,3.75,84.2,4.7
460,Narathiwat,20,TH,1583959720,88,6.33,101.75,78.8,3.36
461,Vao,100,NC,1583959721,74,-22.67,167.48,79.99,8.3
462,Vila Velha,75,BR,1583959723,78,-20.33,-40.29,79,17.22
463,Zhigansk,11,RU,1583959724,97,66.77,123.37,-26.91,15.48
464,Verkhnyaya Inta,100,RU,1583959725,95,65.98,60.31,28.29,7.54
465,Cap-aux-Meules,90,CA,1583959726,79,47.38,-61.86,23,16.11
466,Gra Lygia,20,GR,1583959727,87,35.02,25.68,57,4.41
467,Belyy Yar,36,RU,1583959728,67,53.6,91.39,21.2,6.71
468,Russell,75,US,1583959641,60,32.35,-85.2,75.99,6.93
469,San Mateo del Mar,0,MX,1583959730,62,16.2,-95,83.3,32.84
470,Sosnovka,86,RU,1583959731,76,56.26,51.28,37.13,12.73
471,Ilulissat,75,GL,1583959514,64,69.22,-51.1,1.4,5.82
472,Lima,39,PE,1583959733,54,-12.04,-77.03,84.2,11.41
473,Agadez,0,NE,1583959735,14,19.75,10.25,63.45,16.78
474,Pontes e Lacerda,100,BR,1583959736,54,-15.23,-59.34,89.24,3.06
475,Arrecife,100,ES,1583959737,77,28.96,-13.55,68,3.36
476,Pushkino,40,RU,1583959502,100,56.02,37.87,42.8,8.95
477,Southbridge,1,US,1583959450,34,42.08,-72.03,55.4,6.93
478,Marsá Maţrūḩ,88,EG,1583959740,75,31.35,27.25,59.74,19.44
479,São João da Barra,20,BR,1583959741,65,-21.64,-41.05,80.6,13.87
480,Almaznyy,40,RU,1583959743,87,48.04,40.05,48.2,13.42
481,Manbij,97,SY,1583959744,71,36.53,37.95,53.6,7.02
482,Langxiang,100,CN,1583959745,90,46.95,128.88,16.63,4.63
483,Sept-Îles,75,CA,1583959746,73,50.2,-66.38,24.01,11.41
484,Laguna,1,US,1583959747,42,38.42,-121.42,73.99,3.36
485,Colares,100,PT,1583959748,72,38.8,-9.45,70,11.41
486,Preston,75,GB,1583959749,93,53.77,-2.72,50,25.28
487,Imbituba,40,BR,1583959750,78,-28.24,-48.67,80.6,11.41
488,Beşikdüzü,40,TR,1583959752,81,41.05,39.23,51.8,3.36
489,Nalbari,20,IN,1583959753,82,26.45,91.44,68,7.11
490,Lunderskov,0,DK,1583959754,87,55.48,9.3,46.4,18.34
491,Yeniseysk,100,RU,1583959755,92,58.45,92.17,23.68,12.71
492,Bellview,40,US,1583959756,83,30.46,-87.31,79,8.05
493,Syas'stroy,100,RU,1583959757,93,60.14,32.57,40.03,9.15
494,Pauini,79,BR,1583959630,53,-7.71,-66.98,90.86,2.53
495,Brownsville,75,US,1583959737,51,25.9,-97.5,87.8,16.11
496,Pando,90,UY,1583959762,73,-34.72,-55.95,73.4,6.93
497,Pitelino,100,RU,1583959763,93,54.58,41.81,47.14,14.81
498,Kaitangata,0,NZ,1583959764,83,-46.28,169.85,49.28,9.17
499,Caraballeda,82,VE,1583959765,75,10.61,-66.85,75.99,10.29
500,Chara,76,RU,1583959766,92,56.91,118.26,-30.41,0.67
501,Bartica,75,GY,1583959767,66,6.4,-58.62,84.2,13.87
502,Barra dos Coqueiros,20,BR,1583959768,62,-10.91,-37.04,86,16.11
503,Alice Springs,40,AU,1583959563,60,-23.7,133.88,75.2,4.7
504,São Filipe,0,CV,1583959770,59,14.9,-24.5,74.95,16.28
505,Rizhao,54,CN,1583959772,77,35.43,119.46,42.46,7.76
506,Paracuru,20,BR,1583959773,66,-3.41,-39.03,86,8.05
507,Yüksekova,20,TR,1583959775,45,37.57,44.29,44.6,6.93
508,Sulangan,99,PH,1583959539,76,11.14,123.72,78.66,14.67
509,Great Yarmouth,40,GB,1583959777,71,52.61,1.73,52,18.34
510,São Félix do Xingu,94,BR,1583959778,87,-6.64,-51.99,78.37,2.24
511,Vuktyl,100,RU,1583959779,99,63.86,57.31,32.58,5.46
512,Bemidji,75,US,1583959752,69,47.47,-94.88,37.99,12.75
513,Kalmanka,0,RU,1583959782,78,52.9,83.54,14,13.42
514,Hobyo,89,SO,1583959517,74,5.35,48.53,78.67,15.43
515,Kodinsk,100,RU,1583959784,94,58.69,99.18,20.16,11.81
516,Kabare,99,CD,1583959785,97,-2.47,28.82,60.8,2.51
517,Guasdualito,86,VE,1583959786,32,7.24,-70.73,98.6,5.82
518,Muhafazat Lahij,0,YE,1583959787,55,13.17,44.58,73.26,15.66
519,Touros,40,BR,1583959788,70,-5.2,-35.46,84.2,11.41
520,Toora-Khem,77,RU,1583959789,92,52.47,96.11,1.33,2.37
521,Namatanai,64,PG,1583959790,73,-3.67,152.43,83.41,10.27
522,Noumea,89,NC,1583959657,88,-22.28,166.46,82,3.36
523,Te Anau,1,NZ,1583959793,79,-45.42,167.72,46.45,3.71
524,Guerrero Negro,99,MX,1583959794,60,27.98,-114.06,77.4,4.72
525,São José da Coroa Grande,2,BR,1583959796,76,-8.9,-35.15,83.07,13.38
526,Bellevue,90,US,1583959589,81,47.61,-122.2,51.01,4.05
527,Haines Junction,49,CA,1583959798,81,60.75,-137.51,-0.09,5.91
528,Abashiri,100,JP,1583959799,95,44.02,144.27,27.16,8.52
529,Santo Tomas,20,PH,1583959800,69,14.11,121.14,80.6,8.05
530,Shuangcheng,100,CN,1583959802,79,45.35,126.28,26.6,8.95
531,Acapulco de Juárez,5,MX,1583959803,70,16.86,-99.89,86,10.29
532,Petawawa,90,CA,1583959804,73,45.9,-77.33,32,3.36
533,Zorritos,40,PE,1583959805,33,-3.68,-80.68,89.6,8.05
534,La Romana,75,DO,1583959806,100,18.43,-68.97,82.4,9.17
535,Kozhva,100,RU,1583959807,96,65.11,57.05,30.45,5.44
536,Manaure,75,CO,1583959808,74,11.78,-72.44,82.4,13.87
537,Vinh,48,VN,1583959693,95,18.67,105.67,66.09,1.74
538,Bubaque,0,GW,1583959810,74,11.28,-15.83,81.46,12.64
539,Watertown,1,US,1583959788,70,42.37,-71.18,55,8.05
540,Fuerte Olimpo,0,PY,1583959814,22,-21.04,-57.87,98.02,3.53
541,Mishan,100,CN,1583959815,84,45.55,131.88,19.04,5.08
542,La Concordia,75,NI,1583959816,94,13.2,-86.17,68,6.93
543,Virginia Beach,90,US,1583959249,59,36.85,-75.98,66,8.05
544,Mogadishu,100,SO,1583959630,80,2.04,45.34,80.62,24.7
545,João Câmara,40,BR,1583959819,70,-5.54,-35.82,84.2,11.41
546,Verkhoyansk,29,RU,1583959820,99,67.54,133.38,-30.57,1.45
547,Chamalières,0,FR,1583959822,81,45.78,3.06,51.8,3.36
548,Nouakchott,0,MR,1583959823,31,18.09,-15.98,78.8,13.87
549,Elliot Lake,90,CA,1583959827,92,46.38,-82.63,32,4.7
550,Prince Rupert,90,CA,1583959772,86,54.32,-130.32,37.4,9.17
551,Alta Floresta,75,BR,1583959829,78,-9.88,-56.09,82.4,4.7
552,Tibati,14,CM,1583959833,19,6.47,12.63,71.83,3
553,Darhan,0,MN,1583959834,81,49.49,105.92,2.12,6.73
554,Launceston,12,AU,1583959630,93,-41.45,147.17,55,0.96
555,Gimli,89,CA,1583959836,75,50.63,-96.99,37.99,7
